$GPGGA,122552.286,4325.8152,N,00524.7181,E,0,0,,221.4,M,49.2,M,,*44
$GPGSA,A,1,,,,,,,,,,,,,99.99,99.99,1.00*01
$GPGSV,3,1,9,30,76,059,,05,69,266,,13,43,291,,07,41,053,*4F
$GPGSV,3,2,9,28,33,144,,15,12,289,,02,11,221,,09,08,097,*42
$GPGSV,3,3,9,21,02,334,*75
$GPRMC,122552.286,V,4325.8152,N,00524.7181,E,0.000,0.00,261219,,,N*44
$GPVTG,0.00,T,,M,0.000,N,0.000,K,N*32
$GPGGA,122553.286,4325.8207,N,00524.7164,E,0,0,,221.3,M,49.2,M,,*4A
$GPGSA,A,1,,,,,,,,,,,,,99.99,99.99,1.00*01
$GPGSV,3,1,9,30,76,059,,05,69,266,,13,43,291,,07,41,053,21.4*56
$GPGSV,3,2,9,28,33,144,,15,12,289,,02,11,221,,09,08,097,*42
$GPGSV,3,3,9,21,02,334,*75
$GPRMC,122553.286,V,4325.8207,N,00524.7164,E,0.000,0.00,261219,,,N*4D
$GPVTG,0.00,T,,M,0.000,N,0.000,K,N*32
$GPGGA,122554.286,4325.8206,N,00524.7109,E,0,0,,221.4,M,49.2,M,,*40
$GPGSA,A,1,,,,,,,,,,,,,99.99,99.99,1.00*01
$GPGSV,3,1,9,30,76,059,,05,69,266,,13,43,291,,07,41,053,26.5*50
$GPGSV,3,2,9,28,33,144,,15,12,289,,02,11,221,,09,08,097,*42
$GPGSV,3,3,9,21,02,334,*75
$GPRMC,122554.286,V,4325.8206,N,00524.7109,E,0.000,0.00,261219,,,N*40
$GPVTG,0.00,T,,M,0.000,N,0.000,K,N*32
$GPGGA,122555.286,4325.8152,N,00524.7181,E,0,0,,221.4,M,49.2,M,,*43
$GPGSA,A,1,,,,,,,,,,,,,99.99,99.99,1.00*01
$GPGSV,3,1,9,30,76,059,,05,69,266,19.9,13,43,291,,07,41,053,28.4*40
$GPGSV,3,2,9,28,33,144,,15,12,289,,02,11,221,,09,08,097,*42
$GPGSV,3,3,9,21,02,334,*75
$GPRMC,122555.286,V,4325.8152,N,00524.7181,E,0.000,0.00,261219,,,N*43
$GPVTG,0.00,T,,M,0.000,N,0.000,K,N*32
$GPGGA,122556.286,4325.6456,N,00524.2569,E,0,0,,222.4,M,49.2,M,,*4B
$GPGSA,A,1,,,,,,,,,,,,,99.99,99.99,1.00*01
$GPGSV,3,1,9,30,76,059,,05,69,266,20.1,13,43,291,,07,41,053,26.7*4F
$GPGSV,3,2,9,28,33,144,,15,12,289,,02,11,221,,09,08,097,*42
$GPGSV,3,3,9,21,02,334,*75
$GPRMC,122556.286,V,4325.6456,N,00524.2569,E,0.000,0.00,261219,,,N*48
$GPVTG,0.00,T,,M,0.000,N,0.000,K,N*32
$GPGGA,122557.286,4325.7024,N,00524.1427,E,0,0,,222.2,M,49.2,M,,*44
$GPGSA,A,1,,,,,,,,,,,,,2.11,1.86,1.00*0C
$GPGSV,3,1,9,30,76,059,,05,69,265,19.5,13,43,291,,07,41,053,31.9*4A
$GPGSV,3,2,9,28,33,144,23.4,15,12,289,,02,11,221,,09,08,097,17.9*48
$GPGSV,3,3,9,21,02,334,*75
$GPRMC,122557.286,V,4325.7024,N,00524.1427,E,0.000,0.00,261219,,,N*41
$GPVTG,0.00,T,,M,0.000,N,0.000,K,N*32
$GPGGA,122558.286,4325.7044,N,00524.1239,E,0,0,,224.1,M,49.2,M,,*41
$GPGSA,A,1,,,,,,,,,,,,,2.11,1.86,1.00*0C
$GPGSV,3,1,9,30,76,059,,05,69,265,19.5,13,43,291,,07,41,053,27.9*4D
$GPGSV,3,2,9,28,33,144,23.3,15,12,289,,02,11,221,,09,08,097,17.9*4F
$GPGSV,3,3,9,21,02,334,*75
$GPRMC,122558.286,V,4325.7044,N,00524.1239,E,0.000,0.00,261219,,,N*41
$GPVTG,0.00,T,,M,0.000,N,0.000,K,N*32
$GPGGA,122600.000,4325.7105,N,00524.0916,E,1,5,1.67,222.1,M,49.2,M,,*5C
$GPGSA,A,3,30,07,05,09,28,,,,,,,,1.92,1.67,0.96*05
$GPGSV,3,1,9,30,76,059,21.5,05,69,265,19.2,13,43,291,,07,40,053,28.6*53
$GPGSV,3,2,9,28,33,144,18.9,15,12,289,,02,11,221,,09,08,097,12.6*47
$GPGSV,3,3,9,21,02,334,*75
$GPRMC,122600.000,A,4325.7105,N,00524.0916,E,50.345,287.61,261219,,,A*65
$GPVTG,287.61,T,,M,50.345,N,93.290,K,A*31
$GPGGA,122601.000,4325.7136,N,00524.0737,E,1,5,1.67,222.5,M,49.2,M,,*54
$GPGSA,A,3,30,07,05,09,28,,,,,,,,1.92,1.67,0.96*05
$GPGSV,3,1,9,30,76,059,22.9,05,69,265,18.6,13,43,291,,07,40,053,29.5*5B
$GPGSV,3,2,9,28,33,144,20.9,15,12,289,,02,11,221,,09,08,097,12.6*4C
$GPGSV,3,3,9,21,02,334,*75
$GPRMC,122601.000,A,4325.7136,N,00524.0737,E,52.616,289.33,261219,,,A*61
$GPVTG,289.33,T,,M,52.616,N,97.498,K,A*33
$GPGGA,122602.000,4325.7189,N,00524.0537,E,1,5,1.67,222.9,M,49.2,M,,*5D
$GPGSA,A,3,30,07,05,09,28,,,,,,,,1.92,1.67,0.96*05
$GPGSV,3,1,9,30,76,059,24.7,05,69,265,18.2,13,43,291,,07,40,053,30.3*59
$GPGSV,3,2,9,28,33,144,20.9,15,12,289,,02,11,221,,09,08,097,13.6*4D
$GPGSV,3,3,9,21,02,334,*75
$GPRMC,122602.000,A,4325.7189,N,00524.0537,E,54.060,292.22,261219,,,A*6F
$GPVTG,292.22,T,,M,54.060,N,100.172,K,A*06
$GPGGA,122603.000,4325.7249,N,00524.0338,E,1,5,1.67,223.3,M,49.2,M,,*51
$GPGSA,A,3,30,07,05,09,28,,,,,,,,1.92,1.67,0.96*05
$GPGSV,3,1,9,30,76,059,24.2,05,69,265,17.9,13,43,291,,07,40,053,30.9*52
$GPGSV,3,2,9,28,33,144,24.5,15,12,289,,02,11,221,,09,08,097,14.3*47
$GPGSV,3,3,9,21,02,334,*75
$GPRMC,122603.000,A,4325.7249,N,00524.0338,E,55.775,293.76,261219,,,A*6A
$GPVTG,293.76,T,,M,55.775,N,103.351,K,A*04
$GPGGA,122604.000,4325.7315,N,00524.0171,E,1,5,1.67,223.7,M,49.2,M,,*55
$GPGSA,A,3,30,07,05,09,28,,,,,,,,1.92,1.67,0.96*05
$GPGSV,3,1,9,30,76,059,22.8,05,69,265,22.6,13,43,291,,07,40,053,31.0*5F
$GPGSV,3,2,9,28,33,144,24.8,15,12,289,,02,11,221,,09,08,097,14.5*4C
$GPGSV,3,3,9,21,02,334,*75
$GPRMC,122604.000,A,4325.7315,N,00524.0171,E,57.508,295.00,261219,,,A*67
$GPVTG,295.00,T,,M,57.508,N,106.563,K,A*0B
$GPGGA,122605.000,4325.7386,N,00523.9977,E,1,5,1.67,224.0,M,49.2,M,,*5E
$GPGSA,A,3,30,07,05,09,28,,,,,,,,1.92,1.67,0.96*05
$GPGSV,3,1,9,30,76,059,22.7,05,69,265,22.4,13,43,291,,07,40,053,31.8*5A
$GPGSV,3,2,9,28,33,144,24.4,15,12,289,,02,11,221,,09,08,097,14.5*40
$GPGSV,3,3,9,21,02,334,*75
$GPRMC,122605.000,A,4325.7386,N,00523.9977,E,58.022,296.68,261219,,,A*63
$GPVTG,296.68,T,,M,58.022,N,107.515,K,A*04
$GPGGA,122606.000,4325.7458,N,00523.9782,E,1,5,1.67,224.4,M,49.2,M,,*59
$GPGSA,A,3,30,07,05,09,28,,,,,,,,1.92,1.67,0.96*05
$GPGSV,3,1,9,30,76,059,23.3,05,69,265,21.9,13,43,291,,07,40,053,30.8*50
$GPGSV,3,2,9,28,33,144,24.7,15,12,289,,02,11,221,,09,08,097,14.5*43
$GPGSV,3,3,9,21,02,334,*75
$GPRMC,122606.000,A,4325.7458,N,00523.9782,E,57.826,296.86,261219,,,A*63
$GPVTG,296.86,T,,M,57.826,N,107.152,K,A*00
$GPGGA,122607.000,4325.7530,N,00523.9588,E,1,5,1.67,224.6,M,49.2,M,,*5D
$GPGSA,A,3,30,07,05,09,28,,,,,,,,1.92,1.67,0.96*05
$GPGSV,3,1,9,30,76,059,33.0,05,69,265,22.1,13,43,291,,07,40,053,28.8*50
$GPGSV,3,2,9,28,33,144,24.7,15,12,289,,02,11,221,,09,08,097,12.1*41
$GPGSV,3,3,9,21,02,334,*75
$GPRMC,122607.000,A,4325.7530,N,00523.9588,E,57.400,297.06,261219,,,A*64
$GPVTG,297.06,T,,M,57.400,N,106.362,K,A*01
$GPGGA,122608.000,4325.7605,N,00523.9394,E,1,5,1.67,224.9,M,49.2,M,,*53
$GPGSA,A,3,30,07,05,09,28,,,,,,,,1.92,1.67,0.96*05
$GPGSV,3,1,9,30,76,059,32.0,05,69,265,22.8,13,43,291,,07,40,053,27.1*5E
$GPGSV,3,2,9,28,33,144,25.3,15,12,289,,02,11,221,,09,08,097,12.1*44
$GPGSV,3,3,9,21,02,334,*75
$GPRMC,122608.000,A,4325.7605,N,00523.9394,E,57.733,297.19,261219,,,A*68
$GPVTG,297.19,T,,M,57.733,N,106.979,K,A*0C
$GPGGA,122609.000,4325.7680,N,00523.9197,E,1,5,1.67,225.4,M,49.2,M,,*52
$GPGSA,A,3,30,07,05,09,28,,,,,,,,1.92,1.67,0.96*05
$GPGSV,3,1,9,30,76,059,30.9,05,69,265,23.3,13,43,291,,07,40,053,26.5*5A
$GPGSV,3,2,9,28,33,144,28.6,15,12,289,,02,11,221,,09,08,097,14.3*48
$GPGSV,3,3,9,21,02,334,*75
$GPRMC,122609.000,A,4325.7680,N,00523.9197,E,57.460,296.93,261219,,,A*63
$GPVTG,296.93,T,,M,57.460,N,106.473,K,A*0D
$GPGGA,122610.000,4325.7751,N,00523.8998,E,1,6,1.42,225.8,M,49.2,M,,*59
$GPGSA,A,3,13,30,07,05,09,28,,,,,,,1.68,1.42,0.89*0B
$GPGSV,3,1,9,30,76,059,28.5,05,69,265,24.1,13,43,291,22.2,07,40,053,26.2*41
$GPGSV,3,2,9,28,33,144,27.7,15,12,289,,02,11,221,,09,08,097,14.3*46
$GPGSV,3,3,9,21,02,334,*75
$GPRMC,122610.000,A,4325.7751,N,00523.8998,E,56.684,295.85,261219,,,A*6D
$GPVTG,295.85,T,,M,56.684,N,105.036,K,A*06
$GPGGA,122611.000,4325.7814,N,00523.8796,E,1,6,1.42,226.3,M,49.2,M,,*5E
$GPGSA,A,3,13,30,07,05,09,28,,,,,,,1.68,1.42,0.89*0B
$GPGSV,3,1,9,30,76,059,26.6,05,69,265,24.3,13,43,291,22.2,07,40,053,31.0*4A
$GPGSV,3,2,9,28,33,144,26.3,15,12,289,,02,11,221,,09,08,097,14.3*43
$GPGSV,3,3,9,21,02,334,*75
$GPRMC,122611.000,A,4325.7814,N,00523.8796,E,57.129,293.22,261219,,,A*68
$GPVTG,293.22,T,,M,57.129,N,105.861,K,A*06
$GPGGA,122612.000,4325.7876,N,00523.8594,E,1,6,1.42,226.9,M,49.2,M,,*53
$GPGSA,A,3,13,30,07,05,09,28,,,,,,,1.68,1.42,0.89*0B
$GPGSV,3,1,9,30,76,059,25.3,05,69,265,23.8,13,43,291,22.2,07,40,053,31.8*48
$GPGSV,3,2,9,28,33,144,25.0,15,12,289,,02,11,221,,09,08,097,16.2*40
$GPGSV,3,3,9,21,02,334,*75
$GPRMC,122612.000,A,4325.7876,N,00523.8594,E,57.606,292.43,261219,,,A*63
$GPVTG,292.43,T,,M,57.606,N,106.743,K,A*06
$GPGGA,122613.000,4325.7936,N,00523.8388,E,1,6,1.42,227.4,M,49.2,M,,*50
$GPGSA,A,3,13,30,07,05,09,28,,,,,,,1.68,1.42,0.89*0B
$GPGSV,3,1,9,30,76,059,24.0,05,69,265,23.0,13,43,291,15.0,07,40,053,31.7*4B
$GPGSV,3,2,9,28,33,144,24.0,15,12,289,,02,11,221,,09,08,097,17.2*40
$GPGSV,3,3,9,21,02,334,*75
$GPRMC,122613.000,A,4325.7936,N,00523.8388,E,57.232,292.22,261219,,,A*68
$GPVTG,292.22,T,,M,57.232,N,106.051,K,A*06
$GPGGA,122614.000,4325.7997,N,00523.8184,E,1,6,1.42,227.9,M,49.2,M,,*5F
$GPGSA,A,3,13,30,07,05,09,28,,,,,,,1.68,1.42,0.89*0B
$GPGSV,3,1,9,30,76,059,23.1,05,69,265,21.9,13,43,291,19.3,07,40,053,31.6*48
$GPGSV,3,2,9,28,33,144,23.7,15,12,289,,02,11,221,,09,08,097,17.0*42
$GPGSV,3,3,9,21,02,334,*75
$GPRMC,122614.000,A,4325.7997,N,00523.8184,E,56.502,292.50,261219,,,A*6A
$GPVTG,292.50,T,,M,56.502,N,104.699,K,A*06
$GPGGA,122615.000,4325.8057,N,00523.7987,E,1,6,1.42,228.4,M,49.2,M,,*52
$GPGSA,A,3,13,30,07,05,09,28,,,,,,,1.68,1.42,0.89*0B
$GPGSV,3,1,9,30,76,059,22.5,05,69,265,21.3,13,43,291,19.4,07,40,053,31.5*43
$GPGSV,3,2,9,28,33,144,21.9,15,12,289,,02,11,221,,09,08,097,16.8*47
$GPGSV,3,3,9,21,02,334,*75
$GPRMC,122615.000,A,4325.8057,N,00523.7987,E,55.546,292.65,261219,,,A*60
$GPVTG,292.65,T,,M,55.546,N,102.926,K,A*0E
$GPGGA,122616.000,4325.8111,N,00523.7792,E,1,6,1.42,229.0,M,49.2,M,,*5D
$GPGSA,A,3,13,30,07,05,09,28,,,,,,,1.68,1.42,0.89*0B
$GPGSV,3,1,9,30,76,059,20.5,05,69,265,20.5,13,43,291,19.9,07,40,053,31.3*4D
$GPGSV,3,2,9,28,33,144,21.9,15,12,289,,02,11,221,,09,08,097,16.7*48
$GPGSV,3,3,9,21,02,334,*75
$GPRMC,122616.000,A,4325.8111,N,00523.7792,E,54.651,291.48,261219,,,A*62
$GPVTG,291.48,T,,M,54.651,N,101.268,K,A*04
$GPGGA,122617.000,4325.8165,N,00523.7602,E,1,6,1.42,229.5,M,49.2,M,,*52
$GPGSA,A,3,13,30,07,05,09,28,,,,,,,1.68,1.42,0.89*0B
$GPGSV,3,1,9,30,76,059,19.5,05,69,265,20.4,13,43,291,19.9,07,40,053,30.6*42
$GPGSV,3,2,9,28,33,144,20.9,15,12,289,,02,11,221,,09,08,097,16.5*4B
$GPGSV,3,3,9,21,02,334,*75
$GPRMC,122617.000,A,4325.8165,N,00523.7602,E,52.903,292.08,261219,,,A*61
$GPVTG,292.08,T,,M,52.903,N,98.030,K,A*33
$GPGGA,122618.000,4325.8216,N,00523.7426,E,1,6,1.42,230.1,M,49.2,M,,*52
$GPGSA,A,3,13,30,07,05,09,28,,,,,,,1.68,1.42,0.89*0B
$GPGSV,3,1,9,30,76,059,19.6,05,69,265,20.8,13,43,291,19.2,07,40,053,30.3*43
$GPGSV,3,2,9,28,33,144,20.6,15,12,289,,02,11,221,,09,08,097,17.3*43
$GPGSV,3,3,9,21,02,334,*75
$GPRMC,122618.000,A,4325.8216,N,00523.7426,E,50.632,292.72,261219,,,A*6F
$GPVTG,292.72,T,,M,50.632,N,93.820,K,A*33
$GPGGA,122619.000,4325.8264,N,00523.7256,E,1,6,1.42,230.6,M,49.2,M,,*50
$GPGSA,A,3,13,30,07,05,09,28,,,,,,,1.68,1.42,0.89*0B
$GPGSV,3,1,9,30,76,059,19.9,05,69,265,20.6,13,43,291,19.8,07,40,053,30.6*4D
$GPGSV,3,2,9,28,33,144,20.5,15,12,289,,02,11,221,,09,08,097,17.7*44
$GPGSV,3,3,9,21,02,334,*75
$GPRMC,122619.000,A,4325.8264,N,00523.7256,E,48.634,292.18,261219,,,A*69
$GPVTG,292.18,T,,M,48.634,N,90.119,K,A*30
$GPGGA,122620.000,4325.8311,N,00523.7093,E,1,6,1.42,231.0,M,49.2,M,,*55
$GPGSA,A,3,13,30,07,05,09,28,,,,,,,1.68,1.42,0.89*0B
$GPGSV,3,1,9,30,76,059,27.2,05,69,265,20.4,13,43,291,20.4,07,40,053,28.9*49
$GPGSV,3,2,9,28,33,144,24.9,15,12,289,,02,11,221,,09,08,097,17.7*4C
$GPGSV,3,3,9,21,02,334,*75
$GPRMC,122620.000,A,4325.8311,N,00523.7093,E,45.843,292.26,261219,,,A*65
$GPVTG,292.26,T,,M,45.843,N,84.947,K,A*38
$GPGGA,122621.000,4325.8354,N,00523.6937,E,1,6,1.42,231.5,M,49.2,M,,*56
$GPGSA,A,3,13,30,07,05,09,28,,,,,,,1.68,1.42,0.89*0B
$GPGSV,3,1,9,30,76,059,26.4,05,69,265,23.9,13,43,291,20.7,07,40,053,27.7*42
$GPGSV,3,2,9,28,33,144,24.6,15,12,289,,02,11,221,,09,08,097,17.6*42
$GPGSV,3,3,9,21,02,334,*75
$GPRMC,122621.000,A,4325.8354,N,00523.6937,E,43.932,291.24,261219,,,A*63
$GPVTG,291.24,T,,M,43.932,N,81.407,K,A*34
$GPGGA,122622.000,4325.8392,N,00523.6788,E,1,7,1.32,232.0,M,49.2,M,,*55
$GPGSA,A,3,13,30,15,07,05,09,28,,,,,,1.54,1.32,0.79*08
$GPGSV,3,1,9,30,76,059,26.1,05,69,265,24.1,13,43,291,20.5,07,40,053,26.8*44
$GPGSV,3,2,9,28,33,144,24.4,15,12,289,21.1,02,11,221,,09,08,097,18.4*51
$GPGSV,3,3,9,21,02,334,*75
$GPRMC,122622.000,A,4325.8392,N,00523.6788,E,41.861,290.40,261219,,,A*66
$GPVTG,290.40,T,,M,41.861,N,77.569,K,A*32
$GPGGA,122623.000,4325.8430,N,00523.6647,E,1,7,1.32,232.1,M,49.2,M,,*58
$GPGSA,A,3,13,30,15,07,05,09,28,,,,,,1.54,1.32,0.79*08
$GPGSV,3,1,9,30,76,059,33.4,05,69,265,24.2,13,43,291,20.5,07,40,053,27.1*4E
$GPGSV,3,2,9,28,33,144,25.3,15,12,289,20.6,02,11,221,,09,08,097,19.0*54
$GPGSV,3,3,9,21,02,334,*75
$GPRMC,122623.000,A,4325.8430,N,00523.6647,E,39.821,290.36,261219,,,A*60
$GPVTG,290.36,T,,M,39.821,N,73.788,K,A*31
$GPGGA,122624.000,4325.8469,N,00523.6506,E,1,7,1.32,232.2,M,49.2,M,,*56
$GPGSA,A,3,13,30,15,07,05,09,28,,,,,,1.54,1.32,0.79*08
$GPGSV,3,1,9,30,76,059,33.3,05,69,265,23.7,13,43,291,20.2,07,40,053,26.6*4A
$GPGSV,3,2,9,28,33,144,24.6,15,12,289,20.2,02,11,221,,09,08,097,19.6*52
$GPGSV,3,3,9,21,02,334,*75
$GPRMC,122624.000,A,4325.8469,N,00523.6506,E,38.924,290.68,261219,,,A*63
$GPVTG,290.68,T,,M,38.924,N,72.127,K,A*3D
$GPGGA,122625.000,4325.8504,N,00523.6368,E,1,7,1.32,232.3,M,49.2,M,,*52
$GPGSA,A,3,13,30,15,07,05,09,28,,,,,,1.54,1.32,0.79*08
$GPGSV,3,1,9,30,76,059,33.3,05,69,265,23.4,13,43,291,20.0,07,40,053,25.2*4C
$GPGSV,3,2,9,28,33,144,22.8,15,12,289,21.7,02,11,221,,09,08,097,20.1*53
$GPGSV,3,3,9,21,02,334,*75
$GPRMC,122625.000,A,4325.8504,N,00523.6368,E,38.507,289.23,261219,,,A*6C
$GPVTG,289.23,T,,M,38.507,N,71.353,K,A*35
$GPGGA,122626.000,4325.8537,N,00523.6233,E,1,7,1.32,232.5,M,49.2,M,,*58
$GPGSA,A,3,13,30,15,07,05,09,28,,,,,,1.54,1.32,0.79*08
$GPGSV,3,1,9,30,76,059,32.8,05,69,265,23.6,13,43,291,19.0,07,40,053,24.3*4E
$GPGSV,3,2,9,28,33,144,21.8,15,12,289,21.0,02,11,221,,09,08,097,20.5*53
$GPGSV,3,3,9,21,02,334,*75
$GPRMC,122626.000,A,4325.8537,N,00523.6233,E,37.963,288.30,261219,,,A*62
$GPVTG,288.30,T,,M,37.963,N,70.346,K,A*32
$GPGGA,122627.000,4325.8569,N,00523.6099,E,1,7,1.32,232.7,M,49.2,M,,*52
$GPGSA,A,3,13,30,15,07,05,09,28,,,,,,1.54,1.32,0.79*08
$GPGSV,3,1,9,30,76,059,31.5,05,69,265,28.8,13,43,291,18.8,07,40,053,23.2*4A
$GPGSV,3,2,9,28,33,144,21.1,15,12,289,21.0,02,11,221,,09,08,097,12.3*5D
$GPGSV,3,3,9,21,02,334,*75
$GPRMC,122627.000,A,4325.8569,N,00523.6099,E,37.608,287.87,261219,,,A*6B
$GPVTG,287.87,T,,M,37.608,N,69.688,K,A*3C
$GPGGA,122628.000,4325.8602,N,00523.5965,E,1,7,1.32,233.1,M,49.2,M,,*5D
$GPGSA,A,3,13,30,15,07,05,09,28,,,,,,1.54,1.32,0.79*08
$GPGSV,3,1,9,30,76,059,30.2,05,69,265,27.4,13,43,291,18.0,07,40,053,23.8*4D
$GPGSV,3,2,9,28,33,144,22.0,15,12,289,20.0,02,11,221,,09,08,097,12.3*5E
$GPGSV,3,3,9,21,02,334,*75
$GPRMC,122628.000,A,4325.8602,N,00523.5965,E,37.375,288.54,261219,,,A*6D
$GPVTG,288.54,T,,M,37.375,N,69.256,K,A*35
$GPGGA,122629.000,4325.8634,N,00523.5829,E,1,7,1.32,233.4,M,49.2,M,,*55
$GPGSA,A,3,13,30,15,07,05,09,28,,,,,,1.54,1.32,0.79*08
$GPGSV,3,1,9,30,76,059,30.6,05,69,265,26.3,13,43,291,17.5,07,40,053,24.2*48
$GPGSV,3,2,9,28,33,144,22.6,15,12,289,19.3,02,11,221,,09,08,097,12.3*51
$GPGSV,3,3,9,21,02,334,*75
$GPRMC,122629.000,A,4325.8634,N,00523.5829,E,37.899,288.01,261219,,,A*69
$GPVTG,288.01,T,,M,37.899,N,70.227,K,A*32
$GPGGA,122630.000,4325.8663,N,00523.5691,E,1,7,1.32,233.6,M,49.2,M,,*50
$GPGSA,A,3,13,30,15,07,05,09,28,,,,,,1.54,1.32,0.79*08
$GPGSV,3,1,9,30,76,059,31.4,05,69,265,20.8,13,43,291,17.9,07,40,053,24.3*4B
$GPGSV,3,2,9,28,33,144,23.1,15,12,289,17.0,02,11,221,,09,08,097,13.5*5D
$GPGSV,3,3,9,21,02,334,*75
$GPRMC,122630.000,A,4325.8663,N,00523.5691,E,37.979,287.06,261219,,,A*69
$GPVTG,287.06,T,,M,37.979,N,70.374,K,A*32
$GPGGA,122631.000,4325.8686,N,00523.5553,E,1,7,1.32,234.0,M,49.2,M,,*56
$GPGSA,A,3,13,30,15,07,05,09,28,,,,,,1.54,1.32,0.79*08
$GPGSV,3,1,9,30,76,059,29.5,05,69,265,20.8,13,43,291,18.2,07,40,053,23.4*47
$GPGSV,3,2,9,28,33,144,23.6,15,12,289,15.4,02,11,221,,09,08,097,16.6*5A
$GPGSV,3,3,9,21,02,334,*75
$GPRMC,122631.000,A,4325.8686,N,00523.5553,E,37.107,284.94,261219,,,A*67
$GPVTG,284.94,T,,M,37.107,N,68.759,K,A*39
$GPGGA,122632.000,4325.8712,N,00523.5416,E,1,7,1.32,234.3,M,49.2,M,,*5A
$GPGSA,A,3,13,30,15,07,05,09,28,,,,,,1.54,1.32,0.79*08
$GPGSV,3,1,9,30,76,059,29.5,05,69,265,20.8,13,43,291,11.8,07,40,053,22.1*40
$GPGSV,3,2,9,28,33,144,24.8,15,12,289,14.4,02,11,221,,09,08,097,18.2*58
$GPGSV,3,3,9,21,02,334,*75
$GPRMC,122632.000,A,4325.8712,N,00523.5416,E,36.995,284.61,261219,,,A*60
$GPVTG,284.61,T,,M,36.995,N,68.552,K,A*38
$GPGGA,122633.000,4325.8736,N,00523.5278,E,1,7,1.32,234.7,M,49.2,M,,*57
$GPGSA,A,3,13,30,15,07,05,09,28,,,,,,1.54,1.32,0.79*08
$GPGSV,3,1,9,30,76,059,20.1,05,69,265,10.8,13,43,291,18.2,07,40,053,21.3*4C
$GPGSV,3,2,9,28,33,144,24.8,15,12,289,10.0,02,11,221,,09,08,097,18.2*58
$GPGSV,3,3,9,21,02,334,*75
$GPRMC,122633.000,A,4325.8736,N,00523.5278,E,37.046,284.15,261219,,,A*6C
$GPVTG,284.15,T,,M,37.046,N,68.647,K,A*3A
$GPGGA,122634.000,4325.8745,N,00523.5140,E,1,7,1.32,235.2,M,49.2,M,,*58
$GPGSA,A,3,13,30,15,07,05,09,28,,,,,,1.54,1.32,0.79*08
$GPGSV,3,1,9,30,76,059,20.1,05,69,265,10.8,13,43,291,18.2,07,40,053,20.9*47
$GPGSV,3,2,9,28,33,144,19.3,15,12,289,10.0,02,11,221,,09,08,097,18.2*5D
$GPGSV,3,3,9,21,02,334,*75
$GPRMC,122634.000,A,4325.8745,N,00523.5140,E,36.543,280.10,261219,,,A*67
